code,parent_place,name,lat,lon,ele
acc281a2799d4d77945545a72a092269,관악산,사당능선입구,37.47033395804465,126.97721821255982,90.0
56a6474280104246919950765db73dfa,관악산,관악산전망대,37.46461674571037,126.97429896332324,337.0
4d20987a9e1b464182b22477cde72cd7,관악산,헬리포트,37.4495457066223,126.96971892379224,530.0
eced0a1c50814517a63d63b1ba0ed602,관악산,연주대,37.44517249055207,126.96415208280088,646.0
2606d6c680024271a5e334daf742fc7b,관악산,연주암,37.44172689970583,126.9650776963681,554.0
7020bd014c8943bf9aec5c5cf1c8f9a7,관악산,제2약수터,37.442661775276065,126.97206476703286,353.0
